{
  "point": [
    {
      "name": "北京",
      "lng":116.405285,
      "lat":39.904989,
      "value":200
    },
    {
      "name": "郑州",
      "lng":113.665412,
      "lat":34.757975,
      "value":888
    },
    {
      "name": "青海",
      "lng":101.778916,
      "lat":36.623178,
      "value":666
    },
    {
      "name": "宁夏回族自治区",
      "lng":106.278179,
      "lat":38.46637,
      "value": 66
    },
    {
      "name": "哈尔滨市",
      "lng":126.642464,
      "lat":45.756967,
      "value": 101
    }
  ],
  "map": [
    {
      "name": "北京市",
      "value": 666
    },
    {
      "name": "河北省",
      "value": 98
    },
    {
      "name": "江苏省",
      "value": 300
    },
    {
      "name": "福建省",
      "value": 1199
    },
    {
      "name": "山东省",
      "value": 86
    },
    {
      "name": "河南省",
      "value": 850
    },
    {
      "name": "湖北省",
      "value": 84
    },
    {
      "name": "广西壮族自治区",
      "value": 81
    },
    {
      "name": "海南省",
      "value": 900
    },
    {
      "name": "青海省",
      "value": 800
    },
    {
      "name": "新疆维吾尔自治区",
      "value": 7
    }
  ]
}
